yyyy-mm-dd,hh:mm:ss.ss,lat,lon,depth,ML,Nsta,RMS,intensity,induced,locality
2022-01-16,22:46:22,61.043,3.832,10,1.8,3,0.3,NA,NA,NORWEGIAN SEA
2022-01-17,04:55:54,53.603,-2.984,7.7,1.1,9,0.3,NA,NA,SOUTHPORT MERSEYSIDE
2022-01-18,22:05:02,52.242,1.673,16.6,1,4,0.2,NA,NA,SOUTHERN NORTH SEA
2022-01-19,12:33:03,61.327,3.343,10,2,3,0.4,NA,NA,NORWEGIAN SEA
2022-01-19,20:32:18,55.792,-5.741,14.4,1.1,8,0.1,NA,NA,SOUND OF JURA
2022-01-21,23:45:47,51.722,-3.313,15.1,1,8,0.1,NA,NA,MERTHYR MERTHYR TYDFIL
2022-01-22,00:22:00,53.84,-0.449,9.2,1.6,12,0.3,NA,NA,BEVERLEY E YORKSHIRE
2022-01-23,20:21:20,50.374,-4.742,3.8,1.1,11,0,NA,I,BODELVA  CORNWALL
2022-01-24,02:48:41,55.065,-6.014,1,0.4,5,0.4,NA,NA,NORTH CHANNEL
2022-01-26,21:17:30,53.365,-4.319,6.5,0.8,5,0.3,NA,NA,DULAS ANGLESEY
2022-01-31,14:37:18,56.982,1.837,15.2,3.6,33,0.4,NA,NA,CENTRAL NORTH SEA
2022-02-01,00:10:20,52.341,-4.015,7.8,0.6,5,0.3,NA,NA,LLANILAR CEREDIGION
2022-02-01,12:55:43,50.175,-5.242,5.3,0.4,5,0,NA,NA,CARNMENELLIS CORNWALL
2022-02-01,16:38:04,50.174,-5.244,5.3,0.3,5,0,NA,NA,CARNMENELLIS CORNWALL
2022-02-01,19:23:14,56.176,-4.794,11.4,1.8,8,0.3,NA,NA,ARDGARTAN ARGYLL/BUTE
2022-02-01,19:49:56,50.174,-5.246,5.1,0,5,0,NA,NA,CARNMENELLIS CORNWALL
2022-02-02,14:01:38,55.864,-5.425,5.3,1.6,7,0.2,2,NA,TARBERT ARGYLL & BUTE
2022-02-02,18:25:24,52.751,-2.314,7.7,1.1,9,0.3,NA,NA,OUTWOODS STAFFORDSHIRE
2022-02-03,06:44:35,54.638,-3.666,6.9,0.3,7,0.4,NA,NA,IRISH SEA
2022-02-04,01:28:35,54.643,-3.687,7.9,0.6,6,0.3,NA,NA,IRISH SEA
2022-02-04,22:33:30,49.082,-1.699,11,1.4,7,0.1,NA,NA,JERSEY CHANNEL ISLANDS
2022-02-05,00:30:25,50.885,-5.014,33.1,1.2,8,0.4,NA,NA,CELTIC SEA
2022-02-06,00:48:23,56.983,-5.952,7.5,0.8,5,0.6,NA,NA,MALLAIG HIGHLAND
2022-02-11,22:24:27,51.813,-2.332,12.9,0.8,7,0.2,NA,NA,QUEDGELEY GLOS
2022-02-13,21:27:58,52.787,-2.8,9.6,0.6,5,0.2,NA,NA,BOMERE HEATH SALOP
2022-02-16,07:51:42,57.538,-5.636,5.2,0.8,4,0.2,NA,NA,SHIELDAIG HIGHLAND
2022-02-18,02:40:22,55.537,-5.032,7.9,0.6,8,0.2,NA,NA,ARRAN NORTH AYRSHIRE
2022-02-18,02:52:35,55.538,-5.02,8,1.1,8,0.3,NA,NA,ARRAN NORTH AYRSHIRE
2022-02-18,04:29:11,55.537,-5.018,7.8,0.6,8,0.3,NA,NA,ARRAN NORTH AYRSHIRE
2022-02-18,22:15:42,55.969,-6.402,7.4,1,6,0.4,NA,NA,COLONSAY ARGYLL & BUTE
2022-02-19,06:31:49,55.544,-5.024,8.1,1.3,10,0.4,NA,NA,ARRAN NORTH AYRSHIRE
2022-02-19,19:23:43,52.188,-3.037,8.6,1,7,0.1,NA,NA,KINGTON HEREFORDSHIRE
2022-02-21,00:02:34,56.657,-5.78,7.4,1.4,5,0.2,NA,NA,MORVERN HIGHLAND
2022-02-21,22:59:29,52.544,-1.936,7.5,2.8,23,0.5,5,NA,WALSALL WEST MIDLANDS
2022-02-23,01:54:18,54.124,-1.804,6.5,2.2,24,0.3,NA,NA,RAMSGILL N YORKSHIRE
2022-02-23,04:13:15,54.124,-1.796,6.6,1.5,12,0.3,NA,NA,RAMSGILL N YORKSHIRE
2022-02-23,16:58:40,55.559,-5.052,7.9,1.1,6,0.2,NA,NA,ARRAN NORTH AYRSHIRE
2022-02-25,01:09:27,54.272,-2.351,3.7,1.6,17,0.3,NA,NA,COWGILL CUMBRIA
2022-02-25,23:35:01,51.334,-2.806,9.7,1.5,9,0.3,NA,NA,SANDFORD SOMERSET
2022-02-25,23:37:15,54.624,-2.417,5.9,1.1,10,0.3,NA,NA,DUFTON CUMBRIA
2022-02-26,06:38:25,54.633,-2.361,5.5,0.6,10,0.3,NA,NA,DUFTON CUMBRIA
2022-02-26,23:37:59,54.119,-1.807,6.7,0.9,12,0.3,NA,NA,RAMSGILL N YORKSHIRE
2022-03-05,13:01:43,50.377,-4.747,4.6,1.5,19,0.1,NA,I,BODELVA CORNWALL
2022-03-09,21:22:35,50.38,-4.741,4.2,1.7,9,0.1,3,I,BODELVA CORNWALL
2022-03-10,16:48:38,52.196,-1.522,5.5,1,6,0.2,NA,NA,LIGHTHORNE WARKS
2022-03-11,19:11:34,56.384,-4.027,2.8,0.2,3,0.1,NA,NA,COMRIE PERTH & KINROSS
2022-03-12,08:01:52,54.114,-1.782,8.9,0.9,7,0.2,NA,NA,RAMSGILL N YORKSHIRE
2022-03-14,05:21:17,55.536,-5.026,7.6,0.4,7,0.2,NA,NA,ARRAN NORTH AYRSHIRE
2022-03-14,20:59:45,55.108,-3.658,2.6,0.6,8,0.4,NA,NA,DUMFRIES D & G
2022-03-17,20:09:32,53.439,-3.013,21,1.1,12,0.3,NA,NA,BOOTLE MERSEYSIDE
2022-03-21,05:32:55,61.543,2.268,10,5.2,45,0.6,4,NA,NORWEGIAN SEA
2022-03-21,08:06:28,61.542,2.257,10,2.5,12,0.6,NA,NA,NORWEGIAN SEA
2022-03-22,02:29:25,61.499,2.254,10,2.7,18,0.5,NA,NA,NORWEGIAN SEA
2022-03-22,06:08:10,61.522,2.235,10,2.5,14,0.7,NA,NA,NORWEGIAN SEA
2022-03-22,09:51:35,61.508,2.254,10,2.2,10,0.8,NA,NA,NORWEGIAN SEA
2022-03-23,20:20:26,54.714,-2.152,3.3,0.7,11,0.3,NA,NA,STANHOPE COUNTY DURHAM
2022-03-24,04:40:38,54.02,-3.339,12,0.4,8,0.3,NA,NA,IRISH SEA
2022-03-24,04:59:11,55.437,-5.234,7.6,1.5,12,0.4,NA,NA,ARRAN NORTH AYRSHIRE
2022-03-25,04:56:38,58.39,1.716,10,3.4,44,0.5,NA,NA,CENTRAL NORTH SEA
2022-03-25,16:04:42,61.502,2.339,10,3.1,21,0.5,NA,NA,NORWEGIAN SEA
2022-03-30,00:08:27,56.61,-5.623,6.5,0.6,4,0.1,NA,NA,MORVERN HIGHLAND
2022-03-30,00:37:17,53.377,0.148,23.1,1.1,7,0.3,NA,NA,MABLETHORPE LINCS
2022-03-31,20:55:59,51.939,-2.982,13.9,0.5,4,0.1,NA,NA,CLODOCK HEREFORDSHIRE
2022-04-01,08:55:56,57.774,-5.577,7.5,1,6,0.7,NA,NA,POOLEWE HIGHLAND
2022-04-01,09:31:55,57.771,-5.577,7.6,1.1,6,0.6,NA,NA,POOLEWE HIGHLAND
2022-04-03,01:04:32,52.369,0.603,2.6,0.9,4,0.3,NA,NA,ELVEDEN SUFFOLK
2022-04-03,09:30:25,51.802,1.203,5,1.2,4,0.1,NA,NA,HOLLAND-ON-SEA ESSEX
2022-04-04,06:43:36,53.152,-3.862,7.6,1,4,0.1,NA,NA,TREFRIW CONWY
2022-04-06,13:20:22,56.435,-5.938,4.6,1.1,5,0.4,NA,NA,MULL ARGYLL & BUTE
2022-04-09,01:58:18,54.624,-3.864,7.7,0.1,7,0.2,NA,NA,IRISH SEA
2022-04-12,12:08:44,51.175,-4.734,16.1,0.9,5,0.1,NA,NA,BRISTOL CHANNEL
2022-04-13,01:33:44,52.699,-3.099,4.8,0.8,7,0.3,NA,NA,TREWERN POWYS
2022-04-14,10:49:22,57.766,-5.578,6.5,1.4,6,0.5,NA,NA,POOLEWE HIGHLAND
2022-04-14,11:28:20,57.773,-5.652,7.6,0.9,6,0.4,NA,NA,POOLEWE HIGHLAND
2022-04-15,03:13:26,54.792,-1.86,9.4,1.1,9,0.2,NA,NA,SATLEY COUNTY DURHAM
2022-04-17,18:48:07,55.603,-9.594,7.9,2.4,15,0.3,NA,NA,NORTH ATLANTIC OCEAN
2022-04-19,03:03:11,57.768,-5.569,7.6,1.7,9,0.5,NA,NA,POOLEWE HIGHLAND
2022-04-19,03:06:10,57.791,-5.557,6.7,0.9,7,0.4,NA,NA,POOLEWE HIGHLAND
2022-04-19,03:11:48,57.811,-5.683,6.6,1,7,0.2,NA,NA,POOLEWE HIGHLAND
2022-04-19,11:26:22,55.789,-5.508,8.3,1.5,7,0.3,NA,NA,CLACHAN ARGYLL & BUTE
2022-04-20,11:20:32,55.861,-5.449,7.6,1.2,6,0.4,NA,NA,TARBERT ARGYLL & BUTE
2022-04-20,23:02:35,54.338,-4.15,10.2,0.3,7,0.2,NA,NA,IRISH SEA
2022-04-21,00:53:18,53.58,2.442,10,2.6,19,0.6,NA,NA,SOUTHERN NORTH SEA
2022-04-21,04:14:45,56.975,-5.274,7.3,0.5,6,0.2,NA,NA,LOCH ARKAIG HIGHLAND
2022-04-23,18:39:04,55.742,-5.619,10.5,0.8,8,0.3,NA,NA,CLACHAN ARGYLL & BUTE
2022-04-24,09:48:07,56.504,-4.222,2.6,1.9,13,0.4,3,NA,KILTYRIE PERTH/KINROSS
2022-04-25,17:04:33,55.433,-3.424,8.9,0.6,8,0.2,NA,NA,TWEEDSMUIR BORDERS
2022-05-04,18:07:01,52.626,-1.03,11.3,1,6,0.1,NA,NA,BUSHBY LEICESTERSHIRE
2022-05-06,07:31:05,57.12,-5.643,2.6,0.8,5,0.6,NA,NA,LOCH HOURN HIGHLAND
2022-05-06,10:31:32,52.478,-0.59,6.3,2.3,14,0.6,3,NA,CORBY NORTHAMPTONSHIRE
2022-05-06,12:02:15,56.365,-5.475,6.4,1.1,6,0.2,NA,NA,OBAN ARGYLL & BUTE
2022-05-07,04:52:11,54.35,-2.274,2.6,0.8,14,0.4,NA,NA,COTTERDALE N YORKSHIRE
2022-05-08,05:01:37,57.128,-5.597,3.1,1,7,0.4,NA,NA,LOCH HOURN HIGHLAND
2022-05-08,05:15:12,57.151,-5.681,3,0.9,6,0.3,NA,NA,LOCH HOURN HIGHLAND
2022-05-08,05:35:38,57.136,-5.592,2.6,0.6,5,0.5,NA,NA,LOCH HOURN HIGHLAND
2022-05-08,12:12:34,57.132,-5.616,3.7,1.6,10,0.3,NA,NA,LOCH HOURN HIGHLAND
2022-05-08,14:18:09,57.136,-5.585,4.4,0.7,6,0.4,NA,NA,LOCH HOURN HIGHLAND
2022-05-09,20:57:47,53.024,-2.278,17.6,1,8,0.4,NA,NA,SILVERDALE STAFFS
2022-05-10,00:40:52,52.48,-0.584,7.1,2.1,9,0.6,3,NA,CORBY NORTHAMPTONSHIRE
2022-05-10,23:16:55,57.144,-5.627,7.4,0.8,5,0.4,NA,NA,LOCH HOURN HIGHLAND
2022-05-11,15:43:49,57.149,-5.651,7.4,0.8,5,0.1,NA,NA,LOCH HOURN HIGHLAND
2022-05-11,21:33:03,55.088,-3.182,4.2,0.9,6,0.4,NA,NA,WATERBECK D & G
2022-05-12,03:57:24,53.119,-0.042,14.1,2.2,16,0.3,NA,NA,MAREHAM-LE-FEN LINCS
2022-05-12,21:04:25,52.336,-4.023,8.1,0.7,7,0.2,NA,NA,LLANILAR CEREDIGION
2022-05-17,23:00:56,53.04,-5.451,6.7,1.1,6,0.4,NA,NA,IRISH SEA
2022-05-18,23:51:34,53.628,-1.107,7.6,1.4,21,0.3,NA,NA,MOSS SOUTH YORKSHIRE
2022-05-20,10:22:17,52.844,-2.639,8.7,1.1,8,0.2,NA,NA,WEM SHROPSHIRE
2022-05-20,17:59:29,55.566,-9.627,12.1,1.4,3,0.1,NA,NA,NORTH ATLANTIC OCEAN
2022-05-21,07:47:43,56.388,-5.474,8.7,1.8,12,0.3,3,NA,OBAN ARGYLL & BUTE
2022-05-21,21:17:21,57.771,-5.633,7.7,0.8,6,0.3,NA,NA,POOLEWE HIGHLAND
2022-05-22,18:34:01,56.082,-6.047,14.3,0.9,5,0.1,NA,NA,COLONSAY ARGYLL & BUTE
2022-05-22,20:11:16,54.085,-3.123,2.6,1.2,14,0.3,NA,NA,RAMPSIDE CUMBRIA
2022-05-22,22:34:14,57.103,-5.625,3.8,0.5,6,0.1,NA,NA,LOCH HOURN HIGHLAND
2022-05-25,01:14:10,52.876,-5.658,5.9,0.4,5,0.3,NA,NA,IRISH SEA
2022-05-25,05:30:00,55.783,-5.991,6.8,0.8,6,0.2,NA,NA,JURA ARGYLL & BUTE
2022-05-25,10:26:08,58.821,1.438,14.7,3,25,0.3,NA,NA,CENTRAL NORTH SEA
2022-05-26,04:50:48,53.69,1.308,10,2.1,12,0.5,NA,NA,SOUTHERN NORTH SEA
2022-05-26,15:28:44,57.773,-5.615,7.6,1.6,7,0.4,2,NA,POOLEWE HIGHLAND
2022-05-27,08:19:24,54.124,-1.8,7.6,2.2,16,0.2,NA,NA,RAMSGILL N YORKSHIRE
2022-05-27,09:40:06,54.124,-1.809,8.3,0.9,10,0.3,NA,NA,RAMSGILL N YORKSHIRE
2022-05-29,20:40:37,53.427,-2.348,6.1,2.3,24,0.4,NA,NA,SALE GTR MANCHESTER
2022-05-29,23:08:00,53.428,-2.326,11.7,0.8,13,0.2,NA,NA,SALE GTR MANCHESTER
2022-05-30,07:59:17,55.478,-5.097,7.6,2.1,25,0.3,2,NA,ARRAN NORTH AYRSHIRE
2022-05-30,14:36:57,52.844,-2.645,8.6,3.8,44,0.4,5,NA,WEM SHROPSHIRE
2022-05-30,16:15:39,56.962,1.789,11.2,2.4,17,0.4,NA,NA,CENTRAL NORTH SEA
2022-05-30,20:53:13,55.868,-5.549,7.5,0.9,8,0.3,NA,NA,ORMSARY ARGYLL & BUTE
2022-06-01,01:51:22,53.877,-2.135,15.9,2.7,44,0.5,4,NA,COLNE LANCASHIRE
2022-06-01,18:15:29,53.126,-0.058,7.6,1.3,7,0.3,NA,NA,MAREHAM-LE-FEN LINCS
2022-06-01,19:43:01,49.639,-1.926,2.2,1.7,10,0.4,NA,NA,ENGLISH CHANNEL
2022-06-01,19:47:30,49.627,-1.925,2.1,1.8,9,0.4,NA,NA,ENGLISH CHANNEL
2022-06-02,06:51:57,53.879,-2.11,15.3,1.1,10,0.3,NA,NA,COLNE LANCASHIRE
2022-06-03,04:06:36,53.877,-2.109,16.1,0.9,7,0.2,NA,NA,COLNE LANCASHIRE
2022-06-03,14:18:13,57.16,-5.651,7.3,1,6,0.2,NA,NA,LOCH HOURN HIGHLAND
2022-06-03,19:13:38,50.111,-5.176,5.1,0.1,6,0,NA,NA,CONSTANTINE CORNWALL
2022-06-06,06:51:11,54.088,-3.121,2.6,1.2,15,0.4,NA,NA,RAMPSIDE CUMBRIA
2022-06-07,03:01:53,54.08,-3.124,2.6,0.7,16,0.4,NA,NA,RAMPSIDE CUMBRIA
2022-06-07,03:45:06,54.124,-1.806,7.6,0.4,10,0.4,NA,NA,RAMSGILL N YORKSHIRE
2022-06-08,06:57:04,53.832,-2.021,13,1.4,10,0.2,NA,NA,OLDFIELD W YORKSHIRE
2022-06-08,18:02:50,56.105,-6.067,4.7,0.8,7,0.3,NA,NA,COLONSAY ARGYLL & BUTE
2022-06-15,06:03:50,51.935,-2.901,15.9,0.7,5,0.1,NA,NA,PONTRILAS HEREFORDSHIRE
2022-06-15,16:46:23,57.72,-5.396,7.6,0.9,5,0.2,NA,NA,POOLEWE HIGHLAND
2022-06-16,01:03:01,57.59,-5.43,2.6,1,7,0.3,NA,NA,KINLOCHEWE HIGHLAND
2022-06-17,07:33:27,54.479,-2.91,5.2,1.1,8,0.4,NA,NA,HARTSOP CUMBRIA
2022-06-17,17:32:15,53.147,0.833,10.9,1.6,6,0.1,NA,NA,SOUTHERN NORTH SEA
2022-06-19,06:53:10,54.124,-1.813,6.5,1.9,23,0.3,NA,NA,RAMSGILL N YORKSHIRE
2022-06-21,11:53:11,53.975,-3.074,8.3,1.7,11,0.4,NA,NA,IRISH SEA
2022-06-21,15:56:22,59.141,1.335,6.2,2.7,21,0.5,NA,NA,NORTHERN NORTH SEA
2022-06-22,21:20:25,55.089,-7.564,2.6,0.8,3,0.1,NA,NA,RATHMULLAN CO DONEGAL
2022-06-23,20:00:12,52.578,-2.882,11.5,1.6,15,0.3,NA,NA,WENTNOR SHROPSHIRE
2022-06-24,14:49:43,49.001,-2.346,4.2,1.9,8,0.2,NA,NA,ENGLISH CHANNEL
2022-06-25,03:08:22,55.911,-3.984,8.2,0.2,6,0.2,NA,NA,WATTSTON N LANARKSHIRE
2022-06-27,17:30:24,51.948,-3.043,13.5,1.3,6,0.3,NA,NA,LLANTHONY GWENT
2022-06-28,02:09:30,51.873,-2.596,16.5,0.5,5,0,NA,NA,ROSS-ON-WYE HEREF
2022-07-01,02:09:55,56.376,-5.75,5.2,1.3,7,0.3,NA,NA,MULL ARGYLL & BUTE
2022-07-04,13:54:47,53.113,-1.26,2.5,1.7,10,0.4,NA,NA,ASHFIELD NOTTS
2022-07-04,18:40:37,57.16,-5.569,4.9,1,6,0.3,NA,NA,ARNISDALE HIGHLAND
2022-07-05,05:36:32,49.524,-1.998,2.6,1.7,9,0.4,NA,NA,ENGLISH CHANNEL
2022-07-06,01:55:34,53.88,-2.123,14.1,1.5,16,0.3,NA,NA,COLNE LANCASHIRE
2022-07-06,18:47:10,54.245,-2.499,8.1,0.9,8,0.2,NA,NA,DENT CUMBRIA
2022-07-08,20:13:15,54.114,-1.813,6.7,1.2,11,0.3,NA,NA,RAMSGILL N YORKSHIRE
2022-07-12,12:51:26,55.806,-5.465,7.6,1.7,7,0.2,NA,NA,TARBERT ARGYLL & BUTE
2022-07-13,22:08:35,56.517,-4.208,8,0.5,6,0.4,NA,NA,LAWERS PERTH & KINROSS
2022-07-14,14:43:33,53.517,-2.559,13.3,2.4,22,0.3,NA,NA,LEIGH GTR MANCHESTER
2022-07-16,05:42:23,57.773,-5.603,7.6,1,8,0.4,NA,NA,POOLEWE HIGHLAND
2022-07-18,01:27:30,56.135,-4.175,3.3,0,5,0.1,NA,NA,KIPPEN STIRLING
2022-07-18,18:16:02,56.974,-5.482,8.4,0.5,6,0.5,NA,NA,LOCH NEVIS HIGHLAND
2022-07-19,03:06:01,56.732,-9.254,12.5,2.2,16,0.3,NA,NA,NORTH ATLANTIC OCEAN
2022-07-21,21:00:06,57.163,-5.55,4.4,1.1,9,0.3,NA,NA,ARNISDALE HIGHLAND
2022-07-25,02:35:55,55.105,-7.532,3.1,1.2,3,0.2,NA,NA,RATHMULLAN CO DONEGAL
2022-07-26,09:11:59,55.675,-5.804,11.5,0.7,6,0.2,NA,NA,GIGHA ARGYLL & BUTE
2022-07-28,01:05:27,54.095,-0.871,18.3,0.3,8,0.2,NA,NA,CRAMBECK N YORKSHIRE
2022-07-28,17:18:47,55.979,-4.268,6.3,0.3,7,0.2,NA,NA,STRATHBLANE STIRLING
2022-07-30,15:06:08,55.927,-3.983,10.7,0.4,6,0.1,NA,NA,WATTSTON N LANARKSHIRE
2022-07-30,19:24:06,54.774,-3.263,7.6,1.1,10,0.3,NA,NA,ASPATRIA CUMBRIA
2022-07-31,15:51:37,56.394,-4.294,3.7,1,6,0.3,2,NA,LOCHEARNHEAD STIRLING
2022-07-31,22:23:34,58.48,-2.817,5,1,6,0.4,NA,NA,WICK HIGHLAND
2022-08-01,00:29:24,53.464,-1.289,3.4,0.9,14,0.6,NA,NA,THRYBERGH S YORKSHIRE
2022-08-03,20:43:46,53.69,-3.883,4.8,1.3,9,0.4,NA,NA,IRISH SEA
2022-08-08,01:33:17,52.101,0.186,9.4,2.3,15,0.3,NA,NA,SAWSTON CAMBRIDGESHIRE
2022-08-09,21:05:12,55.538,-5.017,7.6,0.5,8,0.3,NA,NA,ARRAN NORTH AYRSHIRE
2022-08-10,04:31:09,57.506,-5.71,2.7,1,7,0.4,NA,NA,SHIELDAIG HIGHLAND
2022-08-11,13:32:57,51.577,-3.101,7.2,0.8,7,0.1,NA,NA,NEWPORT GWENT
2022-08-12,00:30:33,49.533,-9.4,10,2.4,11,0.2,NA,NA,CELTIC SEA
2022-08-14,20:30:12,53.237,-2.666,13.4,0.5,11,0.2,NA,NA,HATCHMERE CHESHIRE
2022-08-14,21:35:29,54.575,-2.783,7.2,0.6,7,0.3,NA,NA,BUTTERWICK CUMBRIA
2022-08-15,10:21:20,52.966,-4.354,9.1,0.9,5,0.1,NA,NA,LLANAELHAEARN GWYNEDD
2022-08-20,11:11:47,53.09,-1.327,2.6,1.1,7,0.5,NA,NA,ASHFIELD NOTTS
2022-08-20,13:44:22,51.646,-5.437,7.1,1.2,5,0.3,NA,NA,CELTIC SEA
2022-08-24,19:43:27,53.267,-4.672,16,0.6,5,0.1,NA,NA,ANGLESEY GWYNEDD
2022-08-25,17:23:55,52.402,3.007,10,2,23,0.6,NA,NA,SOUTHERN NORTH SEA
2022-08-25,22:26:51,52.205,2.804,10,1.8,12,0.5,NA,NA,SOUTHERN NORTH SEA
2022-08-26,01:47:11,61.804,4.129,19.1,4.2,27,0.6,3,NA,NORWEGIAN SEA
2022-08-30,08:18:53,52.165,-2.395,5.8,0.7,7,0.1,NA,NA,SUCKLEY WORCESTERSHIRE
2022-08-30,13:30:46,55.843,-6.189,7.1,1.3,8,0.3,NA,NA,ISLAY ARGYLL & BUTE
2022-09-05,07:45:02,51.615,-2.198,14,1.5,10,0.3,NA,NA,TETBURY GLOUCESTERSHIRE
2022-09-06,23:00:32,56.908,-4.816,7.6,0.8,7,0.4,NA,NA,ROYBRIDGE HIGHLAND
2022-09-07,21:14:39,55.358,-5.25,7.6,0.6,6,0.4,NA,NA,ARRAN NORTH AYRSHIRE
2022-09-08,21:12:03,55.357,-5.246,11.8,0.5,6,0.4,NA,NA,ARRAN NORTH AYRSHIRE
2022-09-09,12:50:40,54.139,-3.021,5.2,0.6,7,0.2,NA,NA,BARDSEA CUMBRIA
2022-09-09,15:42:21,51.972,-2.43,2.6,1.1,7,0.2,NA,NA,DYMOCK GLOUCESTERSHIRE
2022-09-11,03:40:27,53.108,-1.275,2.6,1.2,10,0.4,NA,NA,ASHFIELD NOTTS
2022-09-11,04:36:55,53.104,-1.286,2.5,1.1,10,0.5,NA,NA,ASHFIELD NOTTS
2022-09-15,17:00:52,52.111,-0.909,10.1,1,5,0.2,NA,NA,POTTERSPURY NORTHANTS
2022-09-17,06:11:50,59.767,2.281,10,2.4,11,0.3,NA,NA,NORTHERN NORTH SEA
2022-09-17,16:16:31,54.027,-3.333,13.6,1,11,0.3,NA,NA,IRISH SEA
2022-09-17,17:44:27,60.031,1.28,10,2.2,9,0.3,NA,NA,NORTHERN NORTH SEA
2022-09-18,08:24:50,52.951,-4.076,7,1.5,12,0.4,3,NA,PORTHMADOG GWYNEDD
2022-09-19,17:31:12,59.476,2.178,10,1.8,8,0.4,NA,NA,NORTHERN NORTH SEA
2022-09-22,00:36:28,54.085,-2.046,13.8,0.9,13,0.2,NA,NA,GRASSINGTON N YORKSHIRE
2022-09-23,12:29:09,54.313,-3.211,7.2,0.3,7,0.3,NA,NA,ULPHA CUMBRIA
2022-09-24,00:26:45,56.619,-5.561,6.9,0.4,6,0.4,NA,NA,STRONTIAN HIGHLAND
2022-09-25,00:58:59,51.063,-2.941,15.1,0.8,8,0.2,NA,NA,EAST LYNG SOMERSET
2022-09-25,08:40:33,54.32,-3.189,4.3,0.5,10,0.2,NA,NA,ULPHA CUMBRIA
2022-09-25,08:41:04,54.316,-3.239,7.9,0.3,3,0.2,NA,NA,ULPHA CUMBRIA
2022-09-26,07:39:05,52.108,-0.886,12.7,1.8,9,0.2,NA,NA,POTTERSPURY NORTHANTS
2022-09-27,01:31:49,57.695,-5.707,6.7,0.6,5,0.3,NA,NA,BADACHRO HIGHLAND
2022-09-27,01:34:11,57.696,-5.692,7.6,1,6,0.3,NA,NA,BADACHRO HIGHLAND
2022-09-27,02:00:56,57.701,-5.726,7.6,0.8,5,0.4,NA,NA,BADACHRO HIGHLAND
2022-09-27,02:39:08,52.627,-2.864,9.3,1.2,11,0.3,NA,NA,HABBERLEY SHROPSHIRE
2022-09-27,20:33:37,57.692,-5.722,7.7,1.3,8,0.5,NA,NA,BADACHRO HIGHLAND
2022-09-28,09:28:41,57.697,-5.712,7.1,1.1,6,0.5,NA,NA,BADACHRO HIGHLAND
2022-09-30,14:53:16,55.183,-3.649,11.8,1.8,14,0.3,NA,NA,AULDGIRTH D & G
2022-10-02,00:55:18,56.951,-5.386,7.9,0.7,7,0.3,NA,NA,KINLOCHARKAIG HIGHLAND
2022-10-02,14:58:39,51.789,-3.576,7.8,1.4,11,0.4,NA,NA,YSTRADFELLTE POWYS
2022-10-03,15:07:51,56.175,-3.884,6.5,1.2,11,0.5,NA,NA,BLAIRLOGIE STIRLING
2022-10-03,17:26:35,56.166,-3.893,7.8,0.6,9,0.3,NA,NA,BLAIRLOGIE STIRLING
2022-10-07,19:30:00,54.119,-1.796,6.6,0.5,9,0.3,NA,NA,RAMSGILL N YORKSHIRE
2022-10-11,08:37:12,53.131,-3.852,7.8,1.8,14,0.3,3,NA,LLANRWST CONWY
2022-10-13,03:32:39,54.55,-2.796,8.4,0.1,9,0.4,NA,NA,BAMPTON CUMBRIA
2022-10-13,17:42:56,53.87,-2.818,4.3,1.2,16,0.3,NA,NA,ST MICHAEL'S LANCASHIRE
2022-10-14,05:04:47,54.174,-2.215,9.3,0.8,11,0.2,NA,NA,HALTON GILL N YORKSHIRE
2022-10-14,16:28:10,54.569,-3.967,7.8,0.3,7,0.2,NA,NA,IRISH SEA
2022-10-18,02:47:41,52.869,-5.526,5.7,0.6,8,0.3,NA,NA,IRISH SEA
2022-10-19,19:33:30,56.156,-3.461,3.8,1,8,0.4,NA,NA,CLEISH PERTH & KINROSS
2022-10-24,21:45:52,53.555,-2.443,14.6,0.6,9,0.1,NA,NA,BOLTON GTR MANCHESTER
2022-10-25,18:42:02,50.206,-5.066,8.9,0.5,5,0.3,NA,NA,PENPOL CORNWALL
2022-10-26,19:21:04,50.366,-5.403,16.7,0.4,5,0,NA,NA,CELTIC SEA
2022-10-26,19:21:12,50.369,-5.402,16.6,0.5,5,0,NA,NA,CELTIC SEA
2022-10-27,04:24:26,57.374,-5.171,4.6,1.3,9,0.3,NA,NA,LOCH MONAR HIGHLAND
2022-10-27,12:27:52,52.08,-3.605,6.9,2,9,0.3,NA,NA,LLANWRTYD WELLS POWYS
2022-10-27,13:30:37,54.718,-2.979,8.6,1,12,0.2,NA,NA,MILLHOUSE CUMBRIA
2022-10-28,17:04:03,53.489,-2.817,14.3,1,14,0.2,NA,NA,KIRKBY MERSEYSIDE
2022-10-29,02:19:57,55.873,-4.913,6.4,0.3,6,0.2,NA,NA,WEMYSS BAY INVERCLYDE
2022-10-31,01:32:14,52.39,-2.261,8,0.7,8,0.2,NA,NA,KIDDERMINSTER WORCS
2022-10-31,17:26:35,57.001,-4.744,4.5,1.3,10,0.4,NA,NA,KILFINNAN HIGHLAND
2022-11-03,08:34:06,54.32,-3.227,7.6,0.3,6,0.2,NA,NA,ULPHA CUMBRIA
2022-11-03,15:29:34,56.407,-4.285,3.7,0.6,5,0.2,NA,NA,LOCHEARNHEAD STIRLING
2022-11-03,23:56:57,57.146,-5.562,3.8,1.4,9,0.2,2,NA,ARNISDALE HIGHLAND
2022-11-04,14:34:27,57.158,-5.608,7.1,0.8,6,0.1,NA,NA,ARNISDALE HIGHLAND
2022-11-05,10:20:02,51.424,-1.469,16.1,1.8,12,0.3,NA,NA,EDDINGTON BERKSHIRE
2022-11-06,21:10:49,51.921,-6.807,5,1.1,3,0.3,NA,NA,CELTIC SEA
2022-11-08,15:51:25,56.978,-5.559,8.2,0.9,6,0.4,NA,NA,LOCH NEVIS HIGHLAND
2022-11-12,02:08:03,52.12,-2.324,12.6,0.4,5,0.1,NA,NA,MALVERN WORCESTERSHIRE
2022-11-13,19:56:46,52.028,-2.823,4.3,0.6,6,0.1,NA,NA,CLEHONGER HEREF
2022-11-14,16:14:41,53.863,-2.316,12.7,1.3,17,0.2,NA,NA,BARLEY LANCASHIRE
2022-11-17,00:57:51,54.377,-3.168,5.7,0.2,5,0.4,NA,NA,SEATHWAITE CUMBRIA
2022-11-18,18:23:30,54.249,-3.859,14.7,0.7,10,0.3,NA,NA,IRISH SEA
2022-11-21,07:21:07,51.871,-2.451,10.7,1,5,0.1,NA,NA,LONGHOPE GLOS
2022-11-26,08:47:27,53.298,-2.094,5.8,1.7,12,0.2,NA,NA,BOLLINGTON CHESHIRE
2022-11-26,10:47:51,57.597,-5.457,2.6,1.2,8,0.2,NA,NA,TORRIDON HIGHLAND
2022-11-27,08:55:22,56.413,-5.68,2.6,1.1,7,0.2,NA,NA,MULL ARGYLL & BUTE
2022-11-29,00:30:09,57.593,-5.456,2.6,0.5,6,0.3,NA,NA,TORRIDON HIGHLAND
2022-12-03,18:27:24,54.219,-4.272,2.6,0.4,8,0.3,NA,NA,IRISH SEA
2022-12-05,01:48:09,51.047,-2.709,10.7,0.9,7,0.2,NA,NA,SOMERTON SOMERSET
2022-12-05,20:30:25,56.008,-5.123,7.6,1,11,0.4,NA,NA,CRAIGENDIVE ARGYLL/BUTE
2022-12-07,00:16:46,51.692,-4.168,12.4,1.1,5,0.1,NA,NA,LLANELLI DYFED
2022-12-08,04:26:52,54.671,-3.131,7.6,0.3,9,0.3,NA,NA,BASSENTHWAITE CUMBRIA
2022-12-11,05:10:52,56.373,-5.492,2.8,0.4,6,0.2,NA,NA,LERAGS ARGYLL & BUTE
2022-12-11,22:27:56,53.972,0.403,4.8,1.5,9,0.2,NA,NA,SOUTHERN NORTH SEA
2022-12-11,22:39:09,56.517,-5.646,2.6,0.7,6,0.3,NA,NA,INNINBEG HIGHLAND
2022-12-16,08:37:39,56.594,-4.115,7.6,0.9,7,0.5,NA,NA,GLENLYON PERTH/KINROSS
2022-12-16,10:26:40,57.649,-5.302,8.2,1,6,0.7,NA,NA,KINLOCHEWE HIGHLAND
2022-12-21,10:26:41,55.994,-5.24,4.6,1.3,8,0.2,NA,NA,GLENDARUEL ARGYLL/BUTE
2022-12-22,13:30:10,56.64,-5.665,7.6,1.4,6,0.3,NA,NA,STRONTIAN HIGHLAND
2022-12-22,16:04:27,55.921,-5.304,8.3,1,8,0.2,NA,NA,MELLDALLOCH ARGYLL/BUTE
2022-12-22,16:56:24,56.634,-5.649,7.8,0.9,6,0.3,NA,NA,STRONTIAN HIGHLAND
2022-12-25,10:50:50,55.242,-3.502,2.6,0.7,9,0.4,NA,NA,ST ANN'S D & G
2022-12-26,01:20:49,54.408,-2.817,2.6,0.9,6,0.2,NA,NA,STAVELEY CUMBRIA
2022-12-27,01:09:12,51.878,-3.051,17.5,2,14,0.3,NA,NA,LLANBEDR POWYS
2022-12-30,03:03:55,56.631,-5.677,8.7,0.9,5,0.2,NA,NA,STRONTIAN HIGHLAND
2023-01-01,03:48:59,57.217,-6.21,2.6,0.9,4,0.2,NA,NA,SKYE HIGHLAND
2023-01-02,21:06:19,54.265,-2.487,7.6,1.3,14,0.4,NA,NA,GAWTHROP CUMBRIA
2023-01-03,06:20:44,56.383,-5.853,2.2,1.7,9,0.3,3,NA,MULL ARGYLL & BUTE
2023-01-07,07:27:34,56.657,-5.657,6,2.3,13,0.3,3,NA,STRONTIAN
